$GPGGA,123456.78,3723.2475,N,12202.2310,W,1,12,1.0,30.0,M,-33.0,M,,*76
$GPGSV,3,1,12,01,40,215,36,02,25,217,36,03,18,328,27,04,08,244,26*77
$GPRMC,123456.78,A,3723.2475,N,12202.2310,W,0.0,0.0,270512,003.1,W*6A
$GPGGA,123456.78,3723.2475,N,12202.2310,W,1,12,1.0,30.0,M,-33.0,M,,*76
$GPGSV,3,1,12,01,40,215,36,02,25,217,36,03,18,328,27,04,08,244,26*77
$GPRMC,123456.78,A,3723.2475,N,12202.2310,W,0.0,0.0,270512,003.1,W*6A
$GPGGA,123456.78,3723.2475,N,12202.2310,W,1,12,1.0,30.0,M,-33.0,M,,*76
$GPGSV,3,1,12,01,40,215,36,02,25,217,36,03,18,328,27,04,08,244,26*77
$GPRMC,123456.78,A,3723.2475,N,12202.2310,W,0.0,0.0,270512,003.1,W*6A
$GPGGA,123456.78,3723.2475,N,12202.2310,W,1,12,1.0,30.0,M,-33.0,M,,*76
$GPGSV,3,1,12,01,40,215,36,02,25,217,36,03,18,328,27,04,08,244,26*77
$GPRMC,123456.78,A,3723.2475,N,12202.2310,W,0.0,0.0,270512,003.1,W*6A
$GPGGA,123456.78,3723.2475,N,12202.2310,W,1,12,1.0,30.0,M,-33.0,M,,*76
$GPGSV,3,1,12,01,40,215,36,02,25,217,36,03,18,328,27,04,08,244,26*77
$GPRMC,123456.78,A,3723.2475,N,12202.2310,W,0.0,0.0,270512,003.1,W*6A
$GPGGA,123456.78,3723.2475,N,12202.2310,W,1,12,1.0,30.0,M,-33.0,M,,*76
$GPGSV,3,1,12,01,40,215,36,02,25,217,36,03,18,328,27,04,08,244,26*77
$GPRMC,123456.78,A,3723.2475,N,12202.2310,W,0.0,0.0,270512,003.1,W*6A
$GPGGA,123456.78,3723.2475,N,12202.2310,W,1,12,1.0,30.0,M,-33.0,M,,*76
$GPGSV,3,1,12,01,40,215,36,02,25,217,36,03,18,328,27,04,08,244,26*77
$GPRMC,123456.78,A,3723.2475,N,12202.2310,W,0.0,0.0,270512,003.1,W*6A
$GPGGA,123456.78,3723.2475,N,12202.2310,W,1,12,1.0,30.0,M,-33.0,M,,*76
$GPGSV,3,1,12,01,40,215,36,02,25,217,36,03,18,328,27,04,08,244,26*77
$GPRMC,123456.78,A,3723.2475,N,12202.2310,W,0.0,0.0,270512,003.1,W*6A
$GPGGA,123456.78,3723.2475,N,12202.2310,W,1,12,1.0,30.0,M,-33.0,M,,*76
$GPGSV,3,1,12,01,40,215,36,02,25,217,36,03,18,328,27,04,08,244,26*77
$GPRMC,123456.78,A,3723.2475,N,12202.2310,W,0.0,0.0,270512,003.1,W*6A
$GPGGA,123456.78,3723.2475,N,12202.2310,W,1,12,1.0,30.0,M,-33.0,M,,*76
$GPGSV,3,1,12,01,40,215,36,02,25,217,36,03,18,328,27,04,08,244,26*77
$GPRMC,123456.78,A,3723.2475,N,12202.2310,W,0.0,0.0,270512,003.1,W*6A
$GPGGA,123456.78,3723.2475,N,12202.2310,W,1,12,1.0,30.0,M,-33.0,M,,*76
$GPGSV,3,1,12,01,40,215,36,02,25,217,36,03,18,328,27,04,08,244,26*77
$GPRMC,123456.78,A,3723.2475,N,12202.2310,W,0.0,0.0,270512,003.1,W*6A
$GPGGA,123456.78,3723.2475,N,12202.2310,W,1,12,1.0,30.0,M,-33.0,M,,*76
$GPGSV,3,1,12,01,40,215,36,02,25,217,36,03,18,328,27,04,08,244,26*77
$GPRMC,123456.78,A,3723.2475,N,12202.2310,W,0.0,0.0,270512,003.1,W*6A
$GPGGA,123456.78,3723.2475,N,12202.2310,W,1,12,1.0,30.0,M,-33.0,M,,*76
$GPGSV,3,1,12,01,40,215,36,02,25,217,36,03,18,328,27,04,08,244,26*77
$GPRMC,123456.78,A,3723.2475,N,12202.2310,W,0.0,0.0,270512,003.1,W*6A
$GPGGA,123456.78,3723.2475,N,12202.2310,W,1,12,1.0,30.0,M,-33.0,M,,*76
$GPGSV,3,1,12,01,40,215,36,02,25,217,36,03,18,328,27,04,08,244,26*77
$GPRMC,123456.78,A,3723.2475,N,12202.2310,W,0.0,0.0,270512,003.1,W*6A
$GPGGA,123456.78,3723.2475,N,12202.2310,W,1,12,1.0,30.0,M,-33.0,M,,*76
$GPGSV,3,1,12,01,40,215,36,02,25,217,36,03,18,328,27,04,08,244,26*77
$GPRMC,123456.78,A,3723.2475,N,12202.2310,W,0.0,0.0,270512,003.1,W*6A
$GPGGA,123456.78,3723.2475,N,12202.2310,W,1,12,1.0,30.0,M,-33.0,M,,*76
$GPGSV,3,1,12,01,40,215,36,02,25,217,36,03,18,328,27,04,08,244,26*77
$GPRMC,123456.78,A,3723.2475,N,12202.2310,W,0.0,0.0,270512,003.1,W*6A
$GPGGA,123456.78,3723.2475,N,12202.2310,W,1,12,1.0,30.0,M,-33.0,M,,*76
$GPGSV,3,1,12,01,40,215,36,02,25,217,36,03,18,328,27,04,08,244,26*77
$GPRMC,123456.78,A,3723.2475,N,12202.2310,W,0.0,0.0,270512,003.1,W*6A
$GPGGA,123456.78,3723.2475,N,12202.2310,W,1,12,1.0,30.0,M,-33.0,M,,*76
$GPGSV,3,1,12,01,40,215,36,02,25,217,36,03,18,328,27,04,08,244,26*77
$GPRMC,123456.78,A,3723.2475,N,12202.2310,W,0.0,0.0,270512,003.1,W*6A
$GPGGA,123456.78,3723.2475,N,12202.2310,W,1,12,1.0,30.0,M,-33.0,M,,*76
$GPGSV,3,1,12,01,40,215,36,02,25,217,36,03,18,328,27,04,08,244,26*77
$GPRMC,123456.78,A,3723.2475,N,12202.2310,W,0.0,0.0,270512,003.1,W*6A
$GPGGA,123456.78,3723.2475,N,12202.2310,W,1,12,1.0,30.0,M,-33.0,M,,*76
$GPGSV,3,1,12,01,40,215,36,02,25,217,36,03,18,328,27,04,08,244,26*77
$GPRMC,123456.78,A,3723.2475,N,12202.2310,W,0.0,0.0,270512,003.1,W*6A
$GPGGA,123456.78,3723.2475,N,12202.2310,W,1,12,1.0,30.0,M,-33.0,M,,*76
$GPGSV,3,1,12,01,40,215,36,02,25,217,36,03,18,328,27,04,08,244,26*77
$GPRMC,123456.78,A,3723.2475,N,12202.2310,W,0.0,0.0,270512,003.1,W*6A
$GPGGA,123456.78,3723.2475,N,12202.2310,W,1,12,1.0,30.0,M,-33.0,M,,*76
$GPGSV,3,1,12,01,40,215,36,02,25,217,36,03,18,328,27,04,08,244,26*77
$GPRMC,123456.78,A,3723.2475,N,12202.2310,W,0.0,0.0,270512,003.1,W*6A
$GPGGA,123456.78,3723.2475,N,12202.2310,W,1,12,1.0,30.0,M,-33.0,M,,*76
$GPGSV,3,1,12,01,40,215,36,02,25,217,36,03,18,328,27,04,08,244,26*77
$GPRMC,123456.78,A,3723.2475,N,12202.2310,W,0.0,0.0,270512,003.1,W*6A
$GPGGA,123456.78,3723.2475,N,12202.2310,W,1,12,1.0,30.0,M,-33.0,M,,*76
$GPGSV,3,1,12,01,40,215,36,02,25,217,36,03,18,328,27,04,08,244,26*77
$GPRMC,123456.78,A,3723.2475,N,12202.2310,W,0.0,0.0,270512,003.1,W*6A
$GPGGA,123456.78,3723.2475,N,12202.2310,W,1,12,1.0,30.0,M,-33.0,M,,*76
$GPGSV,3,1,12,01,40,215,36,02,25,217,36,03,18,328,27,04,08,244,26*77
$GPRMC,123456.78,A,3723.2475,N,12202.2310,W,0.0,0.0,270512,003.1,W*6A
$GPGGA,123456.78,3723.2475,N,12202.2310,W,1,12,1.0,30.0,M,-33.0,M,,*76
$GPGSV,3,1,12,01,40,215,36,02,25,217,36,03,18,328,27,04,08,244,26*77
$GPRMC,123456.78,A,3723.2475,N,12202.2310,W,0.0,0.0,270512,003.1,W*6A
$GPGGA,123456.78,3723.2475,N,12202.2310,W,1,12,1.0,30.0,M,-33.0,M,,*76
$GPGSV,3,1,12,01,40,215,36,02,25,217,36,03,18,328,27,04,08,244,26*77
$GPRMC,123456.78,A,3723.2475,N,12202.2310,W,0.0,0.0,270512,003.1,W*6A
$GPGGA,123456.78,3723.2475,N,12202.2310,W,1,12,1.0,30.0,M,-33.0,M,,*76
$GPGSV,3,1,12,01,40,215,36,02,25,217,36,03,18,328,27,04,08,244,26*77
$GPRMC,123456.78,A,3723.2475,N,12202.2310,W,0.0,0.0,270512,003.1,W*6A
$GPGGA,123456.78,3723.2475,N,12202.2310,W,1,12,1.0,30.0,M,-33.0,M,,*76
$GPGSV,3,1,12,01,40,215,36,02,25,217,36,03,18,328,27,04,08,244,26*77
$GPRMC,123456.78,A,3723.2475,N,12202.2310,W,0.0,0.0,270512,003.1,W*6A
$GPGGA,123456.78,3723.2475,N,12202.2310,W,1,12,1.0,30.0,M,-33.0,M,,*76
$GPGSV,3,1,12,01,40,215,36,02,25,217,36,03,18,328,27,04,08,244,26*77
$GPRMC,123456.78,A,3723.2475,N,12202.2310,W,0.0,0.0,270512,003.1,W*6A
$GPGGA,123456.78,3723.2475,N,12202.2310,W,1,12,1.0,30.0,M,-33.0,M,,*76
$GPGSV,3,1,12,01,40,215,36,02,25,217,36,03,18,328,27,04,08,244,26*77
$GPRMC,123456.78,A,3723.2475,N,12202.2310,W,0.0,0.0,270512,003.1,W*6A
$GPGGA,123456.78,3723.2475,N,12202.2310,W,1,12,1.0,30.0,M,-33.0,M,,*76
$GPGSV,3,1,12,01,40,215,36,02,25,217,36,03,18,328,27,04,08,244,26*77
$GPRMC,123456.78,A,3723.2475,N,12202.2310,W,0.0,0.0,270512,003.1,W*6A
$GPGGA,123456.78,3723.2475,N,12202.2310,W,1,12,1.0,30.0,M,-33.0,M,,*76
$GPGSV,3,1,12,01,40,215,36,02,25,217,36,03,18,328,27,04,08,244,26*77
$GPRMC,123456.78,A,3723.2475,N,12202.2310,W,0.0,0.0,270512,003.1,W*6A
$GPGGA,123456.78,3723.2475,N,12202.2310,W,1,12,1.0,30.0,M,-33.0,M,,*76
$GPGSV,3,1,12,01,40,215,36,02,25,217,36,03,18,328,27,04,08,244,26*77
$GPRMC,123456.78,A,3723.2475,N,12202.2310,W,0.0,0.0,270512,003.1,W*6A
$GPGGA,123456.78,3723.2475,N,12202.2310,W,1,12,1.0,30.0,M,-33.0,M,,*76
$GPGSV,3,1,12,01,40,215,36,02,25,217,36,03,18,328,27,04,08,244,26*77
$GPRMC,123456.78,A,3723.2475,N,12202.2310,W,0.0,0.0,270512,003.1,W*6A
$GPGGA,123456.78,3723.2475,N,12202.2310,W,1,12,1.0,30.0,M,-33.0,M,,*76
$GPGSV,3,1,12,01,40,215,36,02,25,217,36,03,18,328,27,04,08,244,26*77
$GPRMC,123456.78,A,3723.2475,N,12202.2310,W,0.0,0.0,270512,003.1,W*6A
$GPGGA,123456.78,3723.2475,N,12202.2310,W,1,12,1.0,30.0,M,-33.0,M,,*76
$GPGSV,3,1,12,01,40,215,36,02,25,217,36,03,18,328,27,04,08,244,26*77
$GPRMC,123456.78,A,3723.2475,N,12202.2310,W,0.0,0.0,270512,003.1,W*6A
$GPGGA,123456.78,3723.2475,N,12202.2310,W,1,12,1.0,30.0,M,-33.0,M,,*76
$GPGSV,3,1,12,01,40,215,36,02,25,217,36,03,18,328,27,04,08,244,26*77
$GPRMC,123456.78,A,3723.2475,N,12202.2310,W,0.0,0.0,270512,003.1,W*6A
$GPGGA,123456.78,3723.2475,N,12202.2310,W,1,12,1.0,30.0,M,-33.0,M,,*76
$GPGSV,3,1,12,01,40,215,36,02,25,217,36,03,18,328,27,04,08,244,26*77
$GPRMC,123456.78,A,3723.2475,N,12202.2310,W,0.0,0.0,270512,003.1,W*6A
$GPGGA,123456.78,3723.2475,N,12202.2310,W,1,12,1.0,30.0,M,-33.0,M,,*76
$GPGSV,3,1,12,01,40,215,36,02,25,217,36,03,18,328,27,04,08,244,26*77
$GPRMC,123456.78,A,3723.2475,N,12202.2310,W,0.0,0.0,270512,003.1,W*6A
$GPGGA,123456.78,3723.2475,N,12202.2310,W,1,12,1.0,30.0,M,-33.0,M,,*76
$GPGSV,3,1,12,01,40,215,36,02,25,217,36,03,18,328,27,04,08,244,26*77
$GPRMC,123456.78,A,3723.2475,N,12202.2310,W,0.0,0.0,270512,003.1,W*6A
$GPGGA,123456.78,3723.2475,N,12202.2310,W,1,12,1.0,30.0,M,-33.0,M,,*76
$GPGSV,3,1,12,01,40,215,36,02,25,217,36,03,18,328,27,04,08,244,26*77
$GPRMC,123456.78,A,3723.2475,N,12202.2310,W,0.0,0.0,270512,003.1,W*6A
$GPGGA,123456.78,3723.2475,N,12202.2310,W,1,12,1.0,30.0,M,-33.0,M,,*76
$GPGSV,3,1,12,01,40,215,36,02,25,217,36,03,18,328,27,04,08,244,26*77
$GPRMC,123456.78,A,3723.2475,N,12202.2310,W,0.0,0.0,270512,003.1,W*6A
$GPGGA,123456.78,3723.2475,N,12202.2310,W,1,12,1.0,30.0,M,-33.0,M,,*76
$GPGSV,3,1,12,01,40,215,36,02,25,217,36,03,18,328,27,04,08,244,26*77
$GPRMC,123456.78,A,3723.2475,N,12202.2310,W,0.0,0.0,270512,003.1,W*6A
$GPGGA,123456.78,3723.2475,N,12202.2310,W,1,12,1.0,30.0,M,-33.0,M,,*76
$GPGSV,3,1,12,01,40,215,36,02,25,217,36,03,18,328,27,04,08,244,26*77
$GPRMC,123456.78,A,3723.2475,N,12202.2310,W,0.0,0.0,270512,003.1,W*6A
$GPGGA,123456.78,3723.2475,N,12202.2310,W,1,12,1.0,30.0,M,-33.0,M,,*76
$GPGSV,3,1,12,01,40,215,36,02,25,217,36,03,18,328,27,04,08,244,26*77
$GPRMC,123456.78,A,3723.2475,N,12202.2310,W,0.0,0.0,270512,003.1,W*6A
$GPGGA,123456.78,3723.2475,N,12202.2310,W,1,12,1.0,30.0,M,-33.0,M,,*76
$GPGSV,3,1,12,01,40,215,36,02,25,217,36,03,18,328,27,04,08,244,26*77
$GPRMC,123456.78,A,3723.2475,N,12202.2310,W,0.0,0.0,270512,003.1,W*6A
$GPGGA,123456.78,3723.2475,N,12202.2310,W,1,12,1.0,30.0,M,-33.0,M,,*76
$GPGSV,3,1,12,01,40,215,36,02,25,217,36,03,18,328,27,04,08,244,26*77
$GPRMC,123456.78,A,3723.2475,N,12202.2310,W,0.0,0.0,270512,003.1,W*6A
$GPGGA,123456.78,3723.2475,N,12202.2310,W,1,12,1.0,30.0,M,-33.0,M,,*76
$GPGSV,3,1,12,01,40,215,36,02,25,217,36,03,18,328,27,04,08,244,26*77
$GPRMC,123456.78,A,3723.2475,N,12202.2310,W,0.0,0.0,270512,003.1,W*6A
$GPGGA,123456.78,3723.2475,N,12202.2310,W,1,12,1.0,30.0,M,-33.0,M,,*76
$GPGSV,3,1,12,01,40,215,36,02,25,217,36,03,18,328,27,04,08,244,26*77
$GPRMC,123456.78,A,3723.2475,N,12202.2310,W,0.0,0.0,270512,003.1,W*6A
$GPGGA,123456.78,3723.2475,N,12202.2310,W,1,12,1.0,30.0,M,-33.0,M,,*76
$GPGSV,3,1,12,01,40,215,36,02,25,217,36,03,18,328,27,04,08,244,26*77
$GPRMC,123456.78,A,3723.2475,N,12202.2310,W,0.0,0.0,270512,003.1,W*6A
$GPGGA,123456.78,3723.2475,N,12202.2310,W,1,12,1.0,30.0,M,-33.0,M,,*76
$GPGSV,3,1,12,01,40,215,36,02,25,217,36,03,18,328,27,04,08,244,26*77
$GPRMC,123456.78,A,3723.2475,N,12202.2310,W,0.0,0.0,270512,003.1,W*6A
$GPGGA,123456.78,3723.2475,N,12202.2310,W,1,12,1.0,30.0,M,-33.0,M,,*76
$GPGSV,3,1,12,01,40,215,36,02,25,217,36,03,18,328,27,04,08,244,26*77
$GPRMC,123456.78,A,3723.2475,N,12202.2310,W,0.0,0.0,270512,003.1,W*6A
$GPGGA,123456.78,3723.2475,N,12202.2310,W,1,12,1.0,30.0,M,-33.0,M,,*76
$GPGSV,3,1,12,01,40,215,36,02,25,217,36,03,18,328,27,04,08,244,26*77
$GPRMC,123456.78,A,3723.2475,N,12202.2310,W,0.0,0.0,270512,003.1,W*6A
$GPGGA,123456.78,3723.2475,N,12202.2310,W,1,12,1.0,30.0,M,-33.0,M,,*76
$GPGSV,3,1,12,01,40,215,36,02,25,217,36,03,18,328,27,04,08,244,26*77
$GPRMC,123456.78,A,3723.2475,N,12202.2310,W,0.0,0.0,270512,003.1,W*6A
$GPGGA,123456.78,3723.2475,N,12202.2310,W,1,12,1.0,30.0,M,-33.0,M,,*76
$GPGSV,3,1,12,01,40,215,36,02,25,217,36,03,18,328,27,04,08,244,26*77
$GPRMC,123456.78,A,3723.2475,N,12202.2310,W,0.0,0.0,270512,003.1,W*6A
$GPGGA,123456.78,3723.2475,N,12202.2310,W,1,12,1.0,30.0,M,-33.0,M,,*76
$GPGSV,3,1,12,01,40,215,36,02,25,217,36,03,18,328,27,04,08,244,26*77
$GPRMC,123456.78,A,3723.2475,N,12202.2310,W,0.0,0.0,270512,003.1,W*6A
$GPGGA,123456.78,3723.2475,N,12202.2310,W,1,12,1.0,30.0,M,-33.0,M,,*76
$GPGSV,3,1,12,01,40,215,36,02,25,217,36,03,18,328,27,04,08,244,26*77
$GPRMC,123456.78,A,3723.2475,N,12202.2310,W,0.0,0.0,270512,003.1,W*6A
$GPGGA,123456.78,3723.2475,N,12202.2310,W,1,12,1.0,30.0,M,-33.0,M,,*76
$GPGSV,3,1,12,01,40,215,36,02,25,217,36,03,18,328,27,04,08,244,26*77
$GPRMC,123456.78,A,3723.2475,N,12202.2310,W,0.0,0.0,270512,003.1,W*6A
$GPGGA,123456.78,3723.2475,N,12202.2310,W,1,12,1.0,30.0,M,-33.0,M,,*76
$GPGSV,3,1,12,01,40,215,36,02,25,217,36,03,18,328,27,04,08,244,26*77
$GPRMC,123456.78,A,3723.2475,N,12202.2310,W,0.0,0.0,270512,003.1,W*6A
$GPGGA,123456.78,3723.2475,N,12202.2310,W,1,12,1.0,30.0,M,-33.0,M,,*76
$GPGSV,3,1,12,01,40,215,36,02,25,217,36,03,18,328,27,04,08,244,26*77
$GPRMC,123456.78,A,3723.2475,N,12202.2310,W,0.0,0.0,270512,003.1,W*6A
$GPGGA,123456.78,3723.2475,N,12202.2310,W,1,12,1.0,30.0,M,-33.0,M,,*76
$GPGSV,3,1,12,01,40,215,36,02,25,217,36,03,18,328,27,04,08,244,26*77
$GPRMC,123456.78,A,3723.2475,N,12202.2310,W,0.0,0.0,270512,003.1,W*6A
$GPGGA,123456.78,3723.2475,N,12202.2310,W,1,12,1.0,30.0,M,-33.0,M,,*76
$GPGSV,3,1,12,01,40,215,36,02,25,217,36,03,18,328,27,04,08,244,26*77
$GPRMC,123456.78,A,3723.2475,N,12202.2310,W,0.0,0.0,270512,003.1,W*6A
$GPGGA,123456.78,3723.2475,N,12202.2310,W,1,12,1.0,30.0,M,-33.0,M,,*76
$GPGSV,3,1,12,01,40,215,36,02,25,217,36,03,18,328,27,04,08,244,26*77
$GPRMC,123456.78,A,3723.2475,N,12202.2310,W,0.0,0.0,270512,003.1,W*6A
$GPGGA,123456.78,3723.2475,N,12202.2310,W,1,12,1.0,30.0,M,-33.0,M,,*76
$GPGSV,3,1,12,01,40,215,36,02,25,217,36,03,18,328,27,04,08,244,26*77
$GPRMC,123456.78,A,3723.2475,N,12202.2310,W,0.0,0.0,270512,003.1,W*6A
$GPGGA,123456.78,3723.2475,N,12202.2310,W,1,12,1.0,30.0,M,-33.0,M,,*76
$GPGSV,3,1,12,01,40,215,36,02,25,217,36,03,18,328,27,04,08,244,26*77
$GPRMC,123456.78,A,3723.2475,N,12202.2310,W,0.0,0.0,270512,003.1,W*6A
$GPGGA,123456.78,3723.2475,N,12202.2310,W,1,12,1.0,30.0,M,-33.0,M,,*76
$GPGSV,3,1,12,01,40,215,36,02,25,217,36,03,18,328,27,04,08,244,26*77
$GPRMC,123456.78,A,3723.2475,N,12202.2310,W,0.0,0.0,270512,003.1,W*6A
$GPGGA,123456.78,3723.2475,N,12202.2310,W,1,12,1.0,30.0,M,-33.0,M,,*76
$GPGSV,3,1,12,01,40,215,36,02,25,217,36,03,18,328,27,04,08,244,26*77
$GPRMC,123456.78,A,3723.2475,N,12202.2310,W,0.0,0.0,270512,003.1,W*6A
$GPGGA,123456.78,3723.2475,N,12202.2310,W,1,12,1.0,30.0,M,-33.0,M,,*76
$GPGSV,3,1,12,01,40,215,36,02,25,217,36,03,18,328,27,04,08,244,26*77
$GPRMC,123456.78,A,3723.2475,N,12202.2310,W,0.0,0.0,270512,003.1,W*6A
$GPGGA,123456.78,3723.2475,N,12202.2310,W,1,12,1.0,30.0,M,-33.0,M,,*76
$GPGSV,3,1,12,01,40,215,36,02,25,217,36,03,18,328,27,04,08,244,26*77
$GPRMC,123456.78,A,3723.2475,N,12202.2310,W,0.0,0.0,270512,003.1,W*6A
$GPGGA,123456.78,3723.2475,N,12202.2310,W,1,12,1.0,30.0,M,-33.0,M,,*76
$GPGSV,3,1,12,01,40,215,36,02,25,217,36,03,18,328,27,04,08,244,26*77
$GPRMC,123456.78,A,3723.2475,N,12202.2310,W,0.0,0.0,270512,003.1,W*6A
$GPGGA,123456.78,3723.2475,N,12202.2310,W,1,12,1.0,30.0,M,-33.0,M,,*76
$GPGSV,3,1,12,01,40,215,36,02,25,217,36,03,18,328,27,04,08,244,26*77
$GPRMC,123456.78,A,3723.2475,N,12202.2310,W,0.0,0.0,270512,003.1,W*6A
$GPGGA,123456.78,3723.2475,N,12202.2310,W,1,12,1.0,30.0,M,-33.0,M,,*76
$GPGSV,3,1,12,01,40,215,36,02,25,217,36,03,18,328,27,04,08,244,26*77
$GPRMC,123456.78,A,3723.2475,N,12202.2310,W,0.0,0.0,270512,003.1,W*6A
$GPGGA,123456.78,3723.2475,N,12202.2310,W,1,12,1.0,30.0,M,-33.0,M,,*76
$GPGSV,3,1,12,01,40,215,36,02,25,217,36,03,18,328,27,04,08,244,26*77
$GPRMC,123456.78,A,3723.2475,N,12202.2310,W,0.0,0.0,270512,003.1,W*6A
$GPGGA,123456.78,3723.2475,N,12202.2310,W,1,12,1.0,30.0,M,-33.0,M,,*76
$GPGSV,3,1,12,01,40,215,36,02,25,217,36,03,18,328,27,04,08,244,26*77
$GPRMC,123456.78,A,3723.2475,N,12202.2310,W,0.0,0.0,270512,003.1,W*6A
$GPGGA,123456.78,3723.2475,N,12202.2310,W,1,12,1.0,30.0,M,-33.0,M,,*76
$GPGSV,3,1,12,01,40,215,36,02,25,217,36,03,18,328,27,04,08,244,26*77
$GPRMC,123456.78,A,3723.2475,N,12202.2310,W,0.0,0.0,270512,003.1,W*6A
$GPGGA,123456.78,3723.2475,N,12202.2310,W,1,12,1.0,30.0,M,-33.0,M,,*76
$GPGSV,3,1,12,01,40,215,36,02,25,217,36,03,18,328,27,04,08,244,26*77
$GPRMC,123456.78,A,3723.2475,N,12202.2310,W,0.0,0.0,270512,003.1,W*6A
$GPGGA,123456.78,3723.2475,N,12202.2310,W,1,12,1.0,30.0,M,-33.0,M,,*76
$GPGSV,3,1,12,01,40,215,36,02,25,217,36,03,18,328,27,04,08,244,26*77
$GPRMC,123456.78,A,3723.2475,N,12202.2310,W,0.0,0.0,270512,003.1,W*6A
$GPGGA,123456.78,3723.2475,N,12202.2310,W,1,12,1.0,30.0,M,-33.0,M,,*76
$GPGSV,3,1,12,01,40,215,36,02,25,217,36,03,18,328,27,04,08,244,26*77
$GPRMC,123456.78,A,3723.2475,N,12202.2310,W,0.0,0.0,270512,003.1,W*6A
$GPGGA,123456.78,3723.2475,N,12202.2310,W,1,12,1.0,30.0,M,-33.0,M,,*76
$GPGSV,3,1,12,01,40,215,36,02,25,217,36,03,18,328,27,04,08,244,26*77
$GPRMC,123456.78,A,3723.2475,N,12202.2310,W,0.0,0.0,270512,003.1,W*6A
$GPGGA,123456.78,3723.2475,N,12202.2310,W,1,12,1.0,30.0,M,-33.0,M,,*76
$GPGSV,3,1,12,01,40,215,36,02,25,217,36,03,18,328,27,04,08,244,26*77
$GPRMC,123456.78,A,3723.2475,N,12202.2310,W,0.0,0.0,270512,003.1,W*6A
$GPGGA,123456.78,3723.2475,N,12202.2310,W,1,12,1.0,30.0,M,-33.0,M,,*76
$GPGSV,3,1,12,01,40,215,36,02,25,217,36,03,18,328,27,04,08,244,26*77
$GPRMC,123456.78,A,3723.2475,N,12202.2310,W,0.0,0.0,270512,003.1,W*6A
$GPGGA,123456.78,3723.2475,N,12202.2310,W,1,12,1.0,30.0,M,-33.0,M,,*76
$GPGSV,3,1,12,01,40,215,36,02,25,217,36,03,18,328,27,04,08,244,26*77
$GPRMC,123456.78,A,3723.2475,N,12202.2310,W,0.0,0.0,270512,003.1,W*6A
$GPGGA,123456.78,3723.2475,N,12202.2310,W,1,12,1.0,30.0,M,-33.0,M,,*76
$GPGSV,3,1,12,01,40,215,36,02,25,217,36,03,18,328,27,04,08,244,26*77
$GPRMC,123456.78,A,3723.2475,N,12202.2310,W,0.0,0.0,270512,003.1,W*6A
$GPGGA,123456.78,3723.2475,N,12202.2310,W,1,12,1.0,30.0,M,-33.0,M,,*76
$GPGSV,3,1,12,01,40,215,36,02,25,217,36,03,18,328,27,04,08,244,26*77
$GPRMC,123456.78,A,3723.2475,N,12202.2310,W,0.0,0.0,270512,003.1,W*6A
$GPGGA,123456.78,3723.2475,N,12202.2310,W,1,12,1.0,30.0,M,-33.0,M,,*76
$GPGSV,3,1,12,01,40,215,36,02,25,217,36,03,18,328,27,04,08,244,26*77
$GPRMC,123456.78,A,3723.2475,N,12202.2310,W,0.0,0.0,270512,003.1,W*6A
$GPGGA,123456.78,3723.2475,N,12202.2310,W,1,12,1.0,30.0,M,-33.0,M,,*76
$GPGSV,3,1,12,01,40,215,36,02,25,217,36,03,18,328,27,04,08,244,26*77
$GPRMC,123456.78,A,3723.2475,N,12202.2310,W,0.0,0.0,270512,003.1,W*6A
$GPGGA,123456.78,3723.2475,N,12202.2310,W,1,12,1.0,30.0,M,-33.0,M,,*76
$GPGSV,3,1,12,01,40,215,36,02,25,217,36,03,18,328,27,04,08,244,26*77
$GPRMC,123456.78,A,3723.2475,N,12202.2310,W,0.0,0.0,270512,003.1,W*6A
$GPGGA,123456.78,3723.2475,N,12202.2310,W,1,12,1.0,30.0,M,-33.0,M,,*76
$GPGSV,3,1,12,01,40,215,36,02,25,217,36,03,18,328,27,04,08,244,26*77
$GPRMC,123456.78,A,3723.2475,N,12202.2310,W,0.0,0.0,270512,003.1,W*6A
$GPGGA,123456.78,3723.2475,N,12202.2310,W,1,12,1.0,30.0,M,-33.0,M,,*76
$GPGSV,3,1,12,01,40,215,36,02,25,217,36,03,18,328,27,04,08,244,26*77
$GPRMC,123456.78,A,3723.2475,N,12202.2310,W,0.0,0.0,270512,003.1,W*6A
$GPGGA,123456.78,3723.2475,N,12202.2310,W,1,12,1.0,30.0,M,-33.0,M,,*76
$GPGSV,3,1,12,01,40,215,36,02,25,217,36,03,18,328,27,04,08,244,26*77
$GPRMC,123456.78,A,3723.2475,N,12202.2310,W,0.0,0.0,270512,003.1,W*6A
$GPGGA,123456.78,3723.2475,N,12202.2310,W,1,12,1.0,30.0,M,-33.0,M,,*76
$GPGSV,3,1,12,01,40,215,36,02,25,217,36,03,18,328,27,04,08,244,26*77
$GPRMC,123456.78,A,3723.2475,N,12202.2310,W,0.0,0.0,270512,003.1,W*6A
$GPGGA,123456.78,3723.2475,N,12202.2310,W,1,12,1.0,30.0,M,-33.0,M,,*76
$GPGSV,3,1,12,01,40,215,36,02,25,217,36,03,18,328,27,04,08,244,26*77
$GPRMC,123456.78,A,3723.2475,N,12202.2310,W,0.0,0.0,270512,003.1,W*6A
$GPGGA,123456.78,3723.2475,N,12202.2310,W,1,12,1.0,30.0,M,-33.0,M,,*76
$GPGSV,3,1,12,01,40,215,36,02,25,217,36,03,18,328,27,04,08,244,26*77
$GPRMC,123456.78,A,3723.2475,N,12202.2310,W,0.0,0.0,270512,003.1,W*6A
$GPGGA,123456.78,3723.2475,N,12202.2310,W,1,12,1.0,30.0,M,-33.0,M,,*76
$GPGSV,3,1,12,01,40,215,36,02,25,217,36,03,18,328,27,04,08,244,26*77
$GPRMC,123456.78,A,3723.2475,N,12202.2310,W,0.0,0.0,270512,003.1,W*6A
$GPGGA,123456.78,3723.2475,N,12202.2310,W,1,12,1.0,30.0,M,-33.0,M,,*76
$GPGSV,3,1,12,01,40,215,36,02,25,217,36,03,18,328,27,04,08,244,26*77
$GPRMC,123456.78,A,3723.2475,N,12202.2310,W,0.0,0.0,270512,003.1,W*6A
$GPGGA,123456.78,3723.2475,N,12202.2310,W,1,12,1.0,30.0,M,-33.0,M,,*76
$GPGSV,3,1,12,01,40,215,36,02,25,217,36,03,18,328,27,04,08,244,26*77
$GPRMC,123456.78,A,3723.2475,N,12202.2310,W,0.0,0.0,270512,003.1,W*6A
$GPGGA,123456.78,3723.2475,N,12202.2310,W,1,12,1.0,30.0,M,-33.0,M,,*76
$GPGSV,3,1,12,01,40,215,36,02,25,217,36,03,18,328,27,04,08,244,26*77
$GPRMC,123456.78,A,3723.2475,N,12202.2310,W,0.0,0.0,270512,003.1,W*6A
$GPGGA,123456.78,3723.2475,N,12202.2310,W,1,12,1.0,30.0,M,-33.0,M,,*76
$GPGSV,3,1,12,01,40,215,36,02,25,217,36,03,18,328,27,04,08,244,26*77
$GPRMC,123456.78,A,3723.2475,N,12202.2310,W,0.0,0.0,270512,003.1,W*6A
$GPGGA,123456.78,3723.2475,N,12202.2310,W,1,12,1.0,30.0,M,-33.0,M,,*76
$GPGSV,3,1,12,01,40,215,36,02,25,217,36,03,18,328,27,04,08,244,26*77
$GPRMC,123456.78,A,3723.2475,N,12202.2310,W,0.0,0.0,270512,003.1,W*6A
$GPGGA,123456.78,3723.2475,N,12202.2310,W,1,12,1.0,30.0,M,-33.0,M,,*76
$GPGSV,3,1,12,01,40,215,36,02,25,217,36,03,18,328,27,04,08,244,26*77
$GPRMC,123456.78,A,3723.2475,N,12202.2310,W,0.0,0.0,270512,003.1,W*6A
$GPGGA,123456.78,3723.2475,N,12202.2310,W,1,12,1.0,30.0,M,-33.0,M,,*76
$GPGSV,3,1,12,01,40,215,36,02,25,217,36,03,18,328,27,04,08,244,26*77
$GPRMC,123456.78,A,3723.2475,N,12202.2310,W,0.0,0.0,270512,003.1,W*6A
$GPGGA,123456.78,3723.2475,N,12202.2310,W,1,12,1.0,30.0,M,-33.0,M,,*76
$GPGSV,3,1,12,01,40,215,36,02,25,217,36,03,18,328,27,04,08,244,26*77
$GPRMC,123456.78,A,3723.2475,N,12202.2310,W,0.0,0.0,270512,003.1,W*6A
$GPGGA,123456.78,3723.2475,N,12202.2310,W,1,12,1.0,30.0,M,-33.0,M,,*76
$GPGSV,3,1,12,01,40,215,36,02,25,217,36,03,18,328,27,04,08,244,26*77
$GPRMC,123456.78,A,3723.2475,N,12202.2310,W,0.0,0.0,270512,003.1,W*6A
$GPGGA,123456.78,3723.2475,N,12202.2310,W,1,12,1.0,30.0,M,-33.0,M,,*76
$GPGSV,3,1,12,01,40,215,36,02,25,217,36,03,18,328,27,04,08,244,26*77
$GPRMC,123456.78,A,3723.2475,N,12202.2310,W,0.0,0.0,270512,003.1,W*6A
$GPGGA,123456.78,3723.2475,N,12202.2310,W,1,12,1.0,30.0,M,-33.0,M,,*76
$GPGSV,3,1,12,01,40,215,36,02,25,217,36,03,18,328,27,04,08,244,26*77
$GPRMC,123456.78,A,3723.2475,N,12202.2310,W,0.0,0.0,270512,003.1,W*6A
$GPGGA,123456.78,3723.2475,N,12202.2310,W,1,12,1.0,30.0,M,-33.0,M,,*76
$GPGSV,3,1,12,01,40,215,36,02,25,217,36,03,18,328,27,04,08,244,26*77
$GPRMC,123456.78,A,3723.2475,N,12202.2310,W,0.0,0.0,270512,003.1,W*6A
$GPGGA,123456.78,3723.2475,N,12202.2310,W,1,12,1.0,30.0,M,-33.0,M,,*76
$GPGSV,3,1,12,01,40,215,36,02,25,217,36,03,18,328,27,04,08,244,26*77
$GPRMC,123456.78,A,3723.2475,N,12202.2310,W,0.0,0.0,270512,003.1,W*6A
$GPGGA,123456.78,3723.2475,N,12202.2310,W,1,12,1.0,30.0,M,-33.0,M,,*76
$GPGSV,3,1,12,01,40,215,36,02,25,217,36,03,18,328,27,04,08,244,26*77
$GPRMC,123456.78,A,3723.2475,N,12202.2310,W,0.0,0.0,270512,003.1,W*6A
$GPGGA,123456.78,3723.2475,N,12202.2310,W,1,12,1.0,30.0,M,-33.0,M,,*76
$GPGSV,3,1,12,01,40,215,36,02,25,217,36,03,18,328,27,04,08,244,26*77
$GPRMC,123456.78,A,3723.2475,N,12202.2310,W,0.0,0.0,270512,003.1,W*6A
$GPGGA,123456.78,3723.2475,N,12202.2310,W,1,12,1.0,30.0,M,-33.0,M,,*76
$GPGSV,3,1,12,01,40,215,36,02,25,217,36,03,18,328,27,04,08,244,26*77
$GPRMC,123456.78,A,3723.2475,N,12202.2310,W,0.0,0.0,270512,003.1,W*6A